{
  "home_base": "Roanoke City, VA",
  "drive_time_minutes": 240,
  "generated_at": "2025-12-28T18:42:26.903254+00:00",
  "source": "seeds_fallback",
  "markets": [
    {
      "market_name": "Roanoke",
      "state": "VA",
      "preferred_region_type": "metro",
      "metro_code": "40220",
      "display_name": "Roanoke, VA",
      "output_directory": "roanoke",
      "lat": 37.27097,
      "lon": -79.94143,
      "notes": "Seed list for 4-hour drive shed",
      "source": "manual"
    },
    {
      "market_name": "Lynchburg",
      "state": "VA",
      "preferred_region_type": "metro",
      "metro_code": "31340",
      "display_name": "Lynchburg, VA",
      "output_directory": "lynchburg",
      "lat": 37.41375,
      "lon": -79.14225,
      "notes": "Seed list for 4-hour drive shed",
      "source": "manual"
    },
    {
      "market_name": "Blacksburg-Christiansburg",
      "state": "VA",
      "preferred_region_type": "metro",
      "metro_code": "13980",
      "display_name": "Blacksburg-Christiansburg, VA",
      "output_directory": "blacksburg-christiansburg",
      "lat": 37.2296,
      "lon": -80.4139,
      "notes": "Seed list for 4-hour drive shed",
      "source": "manual"
    },
    {
      "market_name": "Charlottesville",
      "state": "VA",
      "preferred_region_type": "metro",
      "metro_code": "16820",
      "display_name": "Charlottesville, VA",
      "output_directory": "charlottesville",
      "lat": 38.0293,
      "lon": -78.4767,
      "notes": "Seed list for 4-hour drive shed",
      "source": "manual"
    },
    {
      "market_name": "Harrisonburg",
      "state": "VA",
      "preferred_region_type": "metro",
      "metro_code": "25500",
      "display_name": "Harrisonburg, VA",
      "output_directory": "harrisonburg",
      "lat": 38.4496,
      "lon": -78.8689,
      "notes": "Seed list for 4-hour drive shed",
      "source": "manual"
    },
    {
      "market_name": "Staunton-Waynesboro",
      "state": "VA",
      "preferred_region_type": "metro",
      "metro_code": "44420",
      "display_name": "Staunton-Waynesboro, VA",
      "output_directory": "staunton-waynesboro",
      "lat": 38.1496,
      "lon": -79.0717,
      "notes": "Seed list for 4-hour drive shed",
      "source": "manual"
    },
    {
      "market_name": "Richmond",
      "state": "VA",
      "preferred_region_type": "metro",
      "metro_code": "40060",
      "display_name": "Richmond, VA",
      "output_directory": "richmond",
      "lat": 37.5407,
      "lon": -77.436,
      "notes": "Seed list for 4-hour drive shed",
      "source": "manual"
    },
    {
      "market_name": "Greensboro-High Point",
      "state": "NC",
      "preferred_region_type": "metro",
      "metro_code": "24660",
      "display_name": "Greensboro-High Point, NC",
      "output_directory": "greensboro-high-point",
      "lat": 36.0726,
      "lon": -79.792,
      "notes": "Seed list for 4-hour drive shed",
      "source": "manual"
    },
    {
      "market_name": "Winston-Salem",
      "state": "NC",
      "preferred_region_type": "metro",
      "metro_code": "49180",
      "display_name": "Winston-Salem, NC",
      "output_directory": "winston-salem",
      "lat": 36.0999,
      "lon": -80.2442,
      "notes": "Seed list for 4-hour drive shed",
      "source": "manual"
    },
    {
      "market_name": "Charlotte-Concord-Gastonia",
      "state": "NC-SC",
      "preferred_region_type": "metro",
      "metro_code": "16740",
      "display_name": "Charlotte, NC",
      "output_directory": "charlotte",
      "lat": 35.2271,
      "lon": -80.8431,
      "notes": "Seed list for 4-hour drive shed",
      "source": "manual"
    }
  ]
}